[{"fsq_id": "5d14607e25359200234eea1a", "categories": [{"id": 17069, "name": "Grocery Store / Supermarket", "icon": {"prefix": "https://ss3.4sqi.net/img/categories_v2/shops/food_grocery_", "suffix": ".png"}}], "chains": [{"id": "16cbce60-992b-0132-fd75-7a163eb2a6fc", "name": "Aldi"}], "distance": 2530, "geocodes": {"main": {"latitude": 51.537551, "longitude": -0.141814}, "roof": {"latitude": 51.537551, "longitude": -0.141814}}, "link": "/v3/places/5d14607e25359200234eea1a", "location": {"admin_region": "England", "country": "GB", "cross_street": "", "formatted_address": "London, Greater London, NW1 7JR", "locality": "London", "post_town": "London", "postcode": "NW1 7JR", "region": "Greater London"}, "name": "Aldi", "related_places": {}, "timezone": "Europe/London"}, {"fsq_id": "5152f11fe4b0e8039b79ceda", "categories": [{"id": 17069, "name": "Grocery Store / Supermarket", "icon": {"prefix": "https://ss3.4sqi.net/img/categories_v2/shops/food_grocery_", "suffix": ".png"}}], "chains": [{"id": "16cbce60-992b-0132-fd75-7a163eb2a6fc", "name": "Aldi"}], "distance": 6300, "geocodes": {"main": {"latitude": 51.540499, "longitude": -0.196015}, "roof": {"latitude": 51.540499, "longitude": -0.196015}}, "link": "/v3/places/5152f11fe4b0e8039b79ceda", "location": {"address": "142-162 Kilburn High Rd", "admin_region": "England", "country": "GB", "cross_street": "Victoria Rd", "formatted_address": "142-162 Kilburn High Rd (Victoria Rd), Greater London, NW6 4JD", "locality": "Greater London", "neighborhood": ["Kilburn"], "post_town": "London", "postcode": "NW6 4JD", "region": "Greater London"}, "name": "Aldi", "related_places": {}, "timezone": "Europe/London"}, {"fsq_id": "59f5e16b61e53b2614c2170e", "categories": [{"id": 17069, "name": "Grocery Store / Supermarket", "icon": {"prefix": "https://ss3.4sqi.net/img/categories_v2/shops/food_grocery_", "suffix": ".png"}}], "chains": [{"id": "16cbce60-992b-0132-fd75-7a163eb2a6fc", "name": "Aldi"}], "distance": 6594, "geocodes": {"main": {"latitude": 51.56903, "longitude": -0.030166}, "roof": {"latitude": 51.56903, "longitude": -0.030166}}, "link": "/v3/places/59f5e16b61e53b2614c2170e", "location": {"address": "Lea Bridge Rd", "admin_region": "England", "country": "GB", "cross_street": "", "formatted_address": "Lea Bridge Rd, London, Greater London, E10 7NQ", "locality": "London", "post_town": "London", "postcode": "E10 7NQ", "region": "Greater London"}, "name": "Aldi", "related_places": {}, "timezone": "Europe/London"}, {"fsq_id": "5c012a20364d970039ef0b21", "categories": [{"id": 17069, "name": "Grocery Store / Supermarket", "icon": {"prefix": "https://ss3.4sqi.net/img/categories_v2/shops/food_grocery_", "suffix": ".png"}}], "chains": [{"id": "16cbce60-992b-0132-fd75-7a163eb2a6fc", "name": "Aldi"}], "distance": 4088, "geocodes": {"main": {"latitude": 51.565112, "longitude": -0.134028}, "roof": {"latitude": 51.565112, "longitude": -0.134028}}, "link": "/v3/places/5c012a20364d970039ef0b21", "location": {"address": "Holloway Rd", "address_extended": "Unit 681 - 689", "admin_region": "England", "country": "GB", "cross_street": "", "formatted_address": "Holloway Rd, London, Greater London, N19 5SE", "locality": "London", "post_town": "London", "postcode": "N19 5SE", "region": "Greater London"}, "name": "Aldi", "related_places": {}, "timezone": "Europe/London"}, {"fsq_id": "609d0c75b20f46301dc2d3cd", "categories": [{"id": 17069, "name": "Grocery Store / Supermarket", "icon": {"prefix": "https://ss3.4sqi.net/img/categories_v2/shops/food_grocery_", "suffix": ".png"}}], "chains": [{"id": "16cbce60-992b-0132-fd75-7a163eb2a6fc", "name": "Aldi"}], "distance": 4911, "geocodes": {"main": {"latitude": 51.524148, "longitude": -0.175582}}, "link": "/v3/places/609d0c75b20f46301dc2d3cd", "location": {"address": "466-490 Edgware Rd", "admin_region": "England", "country": "GB", "cross_street": "", "formatted_address": "466-490 Edgware Rd, London, Greater London, W2 1EJ", "locality": "London", "post_town": "London", "postcode": "W2 1EJ", "region": "Greater London"}, "name": "Aldi", "related_places": {}, "timezone": "Europe/London"}, {"fsq_id": "4c91ceffae96a0937597a646", "categories": [{"id": 17069, "name": "Grocery Store / Supermarket", "icon": {"prefix": "https://ss3.4sqi.net/img/categories_v2/shops/food_grocery_", "suffix": ".png"}}], "chains": [{"id": "16cbce60-992b-0132-fd75-7a163eb2a6fc", "name": "Aldi"}], "distance": 6908, "geocodes": {"main": {"latitude": 51.478828, "longitude": -0.055577}, "roof": {"latitude": 51.478828, "longitude": -0.055577}}, "link": "/v3/places/4c91ceffae96a0937597a646", "location": {"address": "840 Old Kent Rd", "admin_region": "England", "country": "GB", "formatted_address": "840 Old Kent Rd, London, Greater London, SE15 1NQ", "locality": "London", "neighborhood": ["Peckham"], "post_town": "London", "postcode": "SE15 1NQ", "region": "Greater London"}, "name": "Aldi", "related_places": {}, "timezone": "Europe/London"}, {"fsq_id": "50b71998e4b0dd3bd8d8042f", "categories": [{"id": 17069, "name": "Grocery Store / Supermarket", "icon": {"prefix": "https://ss3.4sqi.net/img/categories_v2/shops/food_grocery_", "suffix": ".png"}}], "chains": [{"id": "16cbce60-992b-0132-fd75-7a163eb2a6fc", "name": "Aldi"}], "distance": 7465, "geocodes": {"main": {"latitude": 51.595949, "longitude": -0.068282}, "roof": {"latitude": 51.595949, "longitude": -0.068282}}, "link": "/v3/places/50b71998e4b0dd3bd8d8042f", "location": {"address": "570-592 High Rd", "admin_region": "England", "country": "GB", "cross_street": "", "formatted_address": "570-592 High Rd, London, Greater London, N17 9TA", "locality": "London", "neighborhood": ["Tottenham"], "post_town": "London", "postcode": "N17 9TA", "region": "Greater London"}, "name": "Aldi", "related_places": {}, "timezone": "Europe/London"}, {"fsq_id": "e1e730c68fb641a6146cd718", "categories": [{"id": 17069, "name": "Grocery Store / Supermarket", "icon": {"prefix": "https://ss3.4sqi.net/img/categories_v2/shops/food_grocery_", "suffix": ".png"}}], "chains": [{"id": "16cbce60-992b-0132-fd75-7a163eb2a6fc", "name": "Aldi"}], "distance": 2592, "geocodes": {"main": {"latitude": 51.54635, "longitude": -0.07536}}, "link": "/v3/places/e1e730c68fb641a6146cd718", "location": {"address": "3-5 Kingsland Shopping Cent", "admin_region": "England", "country": "GB", "formatted_address": "3-5 Kingsland Shopping Cent, London, E8 2LX", "locality": "London", "post_town": "London", "postcode": "E8 2LX"}, "name": "Aldi", "related_places": {}}, {"fsq_id": "61e727173fb28e22928c5028", "categories": [{"id": 17069, "name": "Grocery Store / Supermarket", "icon": {"prefix": "https://ss3.4sqi.net/img/categories_v2/shops/food_grocery_", "suffix": ".png"}}], "chains": [{"id": "16cbce60-992b-0132-fd75-7a163eb2a6fc", "name": "Aldi"}], "distance": 8875, "geocodes": {"main": {"latitude": 51.479086, "longitude": -0.010882}}, "link": "/v3/places/61e727173fb28e22928c5028", "location": {"address": "Greenwich High Rd", "admin_region": "England", "country": "GB", "cross_street": "", "formatted_address": "Greenwich High Rd, London, Greater London, SE10 8NB", "locality": "London", "post_town": "London", "postcode": "SE10 8NB", "region": "Greater London"}, "name": "Aldi", "related_places": {}, "timezone": "Europe/London"}, {"fsq_id": "9b93c76502f84bd12e0c0c2e", "categories": [{"id": 17069, "name": "Grocery Store / Supermarket", "icon": {"prefix": "https://ss3.4sqi.net/img/categories_v2/shops/food_grocery_", "suffix": ".png"}}], "chains": [{"id": "16cbce60-992b-0132-fd75-7a163eb2a6fc", "name": "Aldi"}], "distance": 4905, "geocodes": {"main": {"latitude": 51.576563, "longitude": -0.096763}}, "link": "/v3/places/9b93c76502f84bd12e0c0c2e", "location": {"address": "Arena Shopping Park", "address_extended": "Unit 6", "admin_region": "England", "country": "GB", "formatted_address": "Arena Shopping Park, London, N4 1ED", "locality": "London", "post_town": "London", "postcode": "N4 1ED"}, "name": "Aldi", "related_places": {}}]