[{"fsq_id": "56719682498e9bd3772d1b9c", "categories": [{"id": 17069, "name": "Grocery Store / Supermarket", "icon": {"prefix": "https://ss3.4sqi.net/img/categories_v2/shops/food_grocery_", "suffix": ".png"}}], "chains": [{"id": "2fcb9270-9c63-0132-6632-3c15c2dde6c8", "name": "Asda"}], "distance": 3124, "geocodes": {"main": {"latitude": 51.522352, "longitude": -0.064133}, "roof": {"latitude": 51.522352, "longitude": -0.064133}}, "link": "/v3/places/56719682498e9bd3772d1b9c", "location": {"address": "112 Vallance Rd", "admin_region": "England", "country": "GB", "cross_street": "", "formatted_address": "112 Vallance Rd, Bethnal Green, Greater London, E1 5BW", "locality": "London", "neighborhood": ["Aldgate"], "post_town": "London", "postcode": "E1 5BW", "region": "Greater London"}, "name": "Asda", "related_places": {}, "timezone": "Europe/London"}, {"fsq_id": "56cb750acd10ae6f4368c8ea", "categories": [{"id": 17069, "name": "Grocery Store / Supermarket", "icon": {"prefix": "https://ss3.4sqi.net/img/categories_v2/shops/food_grocery_", "suffix": ".png"}}], "chains": [{"id": "2fcb9270-9c63-0132-6632-3c15c2dde6c8", "name": "Asda"}], "distance": 4046, "geocodes": {"main": {"latitude": 51.522016, "longitude": -0.050144}, "roof": {"latitude": 51.522016, "longitude": -0.050144}}, "link": "/v3/places/56cb750acd10ae6f4368c8ea", "location": {"address": "Anchor Retail Park 123 Mile End Rd", "admin_region": "England", "country": "GB", "cross_street": "123 Mile End Rd", "formatted_address": "Anchor Retail Park 123 Mile End Rd (123 Mile End Rd), London, Greater London, E1 4UJ", "locality": "London", "post_town": "London", "postcode": "E1 4UJ", "region": "Greater London"}, "name": "Asda", "related_places": {"parent": {"fsq_id": "5800a37ad67cc1f3e994344b", "name": "Anchor Retail Park"}}, "timezone": "Europe/London"}, {"fsq_id": "4e2b273e45dd3272c80fd44a", "categories": [{"id": 17069, "name": "Grocery Store / Supermarket", "icon": {"prefix": "https://ss3.4sqi.net/img/categories_v2/shops/food_grocery_", "suffix": ".png"}}], "chains": [{"id": "2fcb9270-9c63-0132-6632-3c15c2dde6c8", "name": "Asda"}], "distance": 5084, "geocodes": {"main": {"latitude": 51.573079, "longitude": -0.070867}, "roof": {"latitude": 51.573079, "longitude": -0.070867}}, "link": "/v3/places/4e2b273e45dd3272c80fd44a", "location": {"address": "158 Clapton Common", "admin_region": "England", "country": "GB", "cross_street": "", "formatted_address": "158 Clapton Common, London, Greater London, E5 9AG", "locality": "London", "neighborhood": ["Clapton"], "post_town": "London", "postcode": "E5 9AG", "region": "Greater London"}, "name": "Asda", "related_places": {}, "timezone": "Europe/London"}, {"fsq_id": "4b9151c5f964a520cbb233e3", "categories": [{"id": 17069, "name": "Grocery Store / Supermarket", "icon": {"prefix": "https://ss3.4sqi.net/img/categories_v2/shops/food_grocery_", "suffix": ".png"}}], "chains": [{"id": "2fcb9270-9c63-0132-6632-3c15c2dde6c8", "name": "Asda"}], "distance": 5872, "geocodes": {"main": {"latitude": 51.484446, "longitude": -0.06991}, "roof": {"latitude": 51.484446, "longitude": -0.06991}}, "link": "/v3/places/4b9151c5f964a520cbb233e3", "location": {"address": "464 - 504 Old Kent Rd", "admin_region": "England", "country": "GB", "cross_street": "Ossory Rd", "formatted_address": "464 - 504 Old Kent Rd (Ossory Rd), London, Greater London, SE1 5AG", "locality": "London", "neighborhood": ["Waterloo"], "post_town": "London", "postcode": "SE1 5AG", "region": "Greater London"}, "name": "Asda", "related_places": {"children": [{"fsq_id": "52c3085611d2dba4968f3b0c", "name": "Subway"}]}, "timezone": "Europe/London"}, {"fsq_id": "4b373e65f964a5201a4025e3", "categories": [{"id": 17069, "name": "Grocery Store / Supermarket", "icon": {"prefix": "https://ss3.4sqi.net/img/categories_v2/shops/food_grocery_", "suffix": ".png"}}], "chains": [{"id": "2fcb9270-9c63-0132-6632-3c15c2dde6c8", "name": "Asda"}], "distance": 7720, "geocodes": {"main": {"latitude": 51.494112, "longitude": -0.013326}, "roof": {"latitude": 51.494112, "longitude": -0.013326}}, "link": "/v3/places/4b373e65f964a5201a4025e3", "location": {"address": "151 East Ferry Rd", "address_extended": "Unit 2", "admin_region": "England", "country": "GB", "cross_street": "Isle of Dogs", "formatted_address": "151 East Ferry Rd (Isle of Dogs), London, Greater London, E14 3BT", "locality": "London", "neighborhood": ["Poplar"], "post_town": "London", "postcode": "E14 3BT", "region": "Greater London"}, "name": "Asda", "related_places": {"children": [{"fsq_id": "5a4d37100d173f4b97acc9d3", "name": "George"}]}, "timezone": "Europe/London"}, {"fsq_id": "4bc09c43f8219c748cccb110", "categories": [{"id": 17069, "name": "Grocery Store / Supermarket", "icon": {"prefix": "https://ss3.4sqi.net/img/categories_v2/shops/food_grocery_", "suffix": ".png"}}], "chains": [{"id": "2fcb9270-9c63-0132-6632-3c15c2dde6c8", "name": "Asda"}], "distance": 7146, "geocodes": {"main": {"latitude": 51.555842, "longitude": -0.009405}, "roof": {"latitude": 51.556192, "longitude": -0.009232}}, "link": "/v3/places/4bc09c43f8219c748cccb110", "location": {"address": "Marshall Rd", "address_extended": "Unit G", "admin_region": "England", "country": "GB", "formatted_address": "Marshall Rd, Leyton, Greater London, E10 5NH", "locality": "Leyton", "neighborhood": ["Leyton"], "post_town": "London", "postcode": "E10 5NH", "region": "Greater London"}, "name": "Asda", "related_places": {"parent": {"fsq_id": "4f23dbe6e4b0020c2e244b6d", "name": "Leyton Mills Retail Park"}, "children": [{"fsq_id": "59131e9f25fb7b766758b046", "name": "Asda"}, {"fsq_id": "5ab21f4d464d6563a7cc97a8", "name": "Coffee Shop"}, {"fsq_id": "4f66e7bae4b0e30d22d2f796", "name": "Asda Filling Station"}, {"fsq_id": "56b0ac49498e918bda883f91", "name": "Asda Pharmacy"}]}, "timezone": "Europe/London"}, {"fsq_id": "4c20d0afd4dec928f0f51b3e", "categories": [{"id": 17069, "name": "Grocery Store / Supermarket", "icon": {"prefix": "https://ss3.4sqi.net/img/categories_v2/shops/food_grocery_", "suffix": ".png"}}], "chains": [{"id": "2fcb9270-9c63-0132-6632-3c15c2dde6c8", "name": "Asda"}], "distance": 7223, "geocodes": {"main": {"latitude": 51.593576, "longitude": -0.069363}, "roof": {"latitude": 51.593576, "longitude": -0.069363}}, "link": "/v3/places/4c20d0afd4dec928f0f51b3e", "location": {"address": "490 High Rd", "admin_region": "England", "country": "GB", "formatted_address": "490 High Rd, Tottenham, Greater London, N17 9JF", "locality": "Tottenham", "neighborhood": ["Tottenham"], "post_town": "London", "postcode": "N17 9JF", "region": "Greater London"}, "name": "Asda", "related_places": {}, "timezone": "Europe/London"}, {"fsq_id": "573c6b3ecd10eace3502cadb", "categories": [{"id": 17069, "name": "Grocery Store / Supermarket", "icon": {"prefix": "https://ss3.4sqi.net/img/categories_v2/shops/food_grocery_", "suffix": ".png"}}], "chains": [{"id": "2fcb9270-9c63-0132-6632-3c15c2dde6c8", "name": "Asda"}], "distance": 8439, "geocodes": {"main": {"latitude": 51.4753, "longitude": -0.026254}, "roof": {"latitude": 51.4753, "longitude": -0.026254}}, "link": "/v3/places/573c6b3ecd10eace3502cadb", "location": {"address": "5-9 Deptford High St", "admin_region": "England", "country": "GB", "cross_street": "", "formatted_address": "5-9 Deptford High St, Deptford, Greater London, SE8 4AD", "locality": "Deptford", "neighborhood": ["Deptford"], "post_town": "London", "postcode": "SE8 4AD", "region": "Greater London"}, "name": "Asda", "related_places": {}, "timezone": "Europe/London"}, {"fsq_id": "4ac518eef964a520efac20e3", "categories": [{"id": 17069, "name": "Grocery Store / Supermarket", "icon": {"prefix": "https://ss3.4sqi.net/img/categories_v2/shops/food_grocery_", "suffix": ".png"}}], "chains": [{"id": "2fcb9270-9c63-0132-6632-3c15c2dde6c8", "name": "Asda"}], "distance": 8558, "geocodes": {"main": {"latitude": 51.465318, "longitude": -0.165074}, "roof": {"latitude": 51.465318, "longitude": -0.165074}}, "link": "/v3/places/4ac518eef964a520efac20e3", "location": {"address": "204 Lavender Hill", "admin_region": "England", "country": "GB", "formatted_address": "204 Lavender Hill, London, Greater London, SW11 1JG", "locality": "London", "neighborhood": ["Battersea"], "post_town": "London", "postcode": "SW11 1JG", "region": "Greater London"}, "name": "Asda", "related_places": {"children": [{"fsq_id": "60379dec0637ad231a255ef1", "name": "Panku Street Food"}]}, "timezone": "Europe/London"}, {"fsq_id": "4afeaeedf964a520ec2f22e3", "categories": [{"id": 17069, "name": "Grocery Store / Supermarket", "icon": {"prefix": "https://ss3.4sqi.net/img/categories_v2/shops/food_grocery_", "suffix": ".png"}}], "chains": [{"id": "2fcb9270-9c63-0132-6632-3c15c2dde6c8", "name": "Asda"}], "distance": 7897, "geocodes": {"main": {"latitude": 51.582832, "longitude": -0.024851}, "roof": {"latitude": 51.582832, "longitude": -0.024851}}, "link": "/v3/places/4afeaeedf964a520ec2f22e3", "location": {"address": "19 Selborne Walk Shopping Centre", "admin_region": "England", "country": "GB", "cross_street": "High St", "formatted_address": "19 Selborne Walk Shopping Centre (High St), Walthamstow, Greater London, E17 7LS", "locality": "Walthamstow", "neighborhood": ["Walthamstow"], "post_town": "London", "postcode": "E17 7LS", "region": "Greater London"}, "name": "Asda", "related_places": {"parent": {"fsq_id": "4b5c37a7f964a5209a2729e3", "name": "The Mall"}}, "timezone": "Europe/London"}]