[{"fsq_id": "4b6efee4f964a52085d52ce3", "categories": [{"id": 17069, "name": "Grocery Store / Supermarket", "icon": {"prefix": "https://ss3.4sqi.net/img/categories_v2/shops/food_grocery_", "suffix": ".png"}}], "chains": [{"id": "2fc927c0-9c63-0132-6632-3c15c2dde6c8", "name": "Tesco"}], "distance": 2367, "geocodes": {"main": {"latitude": 51.54546, "longitude": -0.133338}, "roof": {"latitude": 51.54546, "longitude": -0.133338}}, "link": "/v3/places/4b6efee4f964a52085d52ce3", "location": {"address": "196 Camden Rd", "admin_region": "England", "country": "GB", "cross_street": "", "formatted_address": "196 Camden Rd, London, Greater London, NW1 9HG", "locality": "London", "neighborhood": ["Camden Town"], "post_town": "London", "postcode": "NW1 9HG", "region": "Greater London"}, "name": "Tesco", "related_places": {}, "timezone": "Europe/London"}, {"fsq_id": "4ac518eef964a520ecac20e3", "categories": [{"id": 17069, "name": "Grocery Store / Supermarket", "icon": {"prefix": "https://ss3.4sqi.net/img/categories_v2/shops/food_grocery_", "suffix": ".png"}}], "chains": [{"id": "2fc927c0-9c63-0132-6632-3c15c2dde6c8", "name": "Tesco"}], "distance": 2345, "geocodes": {"main": {"latitude": 51.51353, "longitude": -0.091671}}, "link": "/v3/places/4ac518eef964a520ecac20e3", "location": {"address": "80B Cheapside", "admin_region": "England", "country": "GB", "cross_street": "", "formatted_address": "80B Cheapside, London, Greater London, EC2V 6EE", "locality": "London", "neighborhood": ["City"], "post_town": "London", "postcode": "EC2V 6EE", "region": "Greater London"}, "name": "Tesco", "related_places": {"children": [{"fsq_id": "55c1f69a498ef551ab4fe464", "name": "Burrito Kitchen"}]}, "timezone": "Europe/London"}, {"fsq_id": "4b7d694ff964a520edbc2fe3", "categories": [{"id": 17069, "name": "Grocery Store / Supermarket", "icon": {"prefix": "https://ss3.4sqi.net/img/categories_v2/shops/food_grocery_", "suffix": ".png"}}], "chains": [{"id": "2fc927c0-9c63-0132-6632-3c15c2dde6c8", "name": "Tesco"}], "distance": 483, "geocodes": {"main": {"latitude": 51.531697, "longitude": -0.112758}, "roof": {"latitude": 51.531697, "longitude": -0.112758}}, "link": "/v3/places/4b7d694ff964a520edbc2fe3", "location": {"address": "122-128 Pentonville Rd", "admin_region": "England", "country": "GB", "cross_street": "", "formatted_address": "122-128 Pentonville Rd, London, Greater London, N1 9TT", "locality": "London", "neighborhood": ["Islington"], "post_town": "London", "postcode": "N1 9TT", "region": "Greater London"}, "name": "Tesco Express", "related_places": {}, "timezone": "Europe/London"}, {"fsq_id": "4bf146fea09076b022d429d4", "categories": [{"id": 17069, "name": "Grocery Store / Supermarket", "icon": {"prefix": "https://ss3.4sqi.net/img/categories_v2/shops/food_grocery_", "suffix": ".png"}}], "chains": [{"id": "2fc927c0-9c63-0132-6632-3c15c2dde6c8", "name": "Tesco"}], "distance": 431, "geocodes": {"main": {"latitude": 51.535904, "longitude": -0.102411}, "roof": {"latitude": 51.535904, "longitude": -0.102411}}, "link": "/v3/places/4bf146fea09076b022d429d4", "location": {"address": "25 Islington Green", "admin_region": "England", "country": "GB", "cross_street": "", "formatted_address": "25 Islington Green, London, Greater London, N1 8DU", "locality": "London", "neighborhood": ["Islington"], "post_town": "London", "postcode": "N1 8DU", "region": "Greater London"}, "name": "Tesco Express", "related_places": {}, "timezone": "Europe/London"}, {"fsq_id": "564c49b738fae2c0d73ff781", "categories": [{"id": 17069, "name": "Grocery Store / Supermarket", "icon": {"prefix": "https://ss3.4sqi.net/img/categories_v2/shops/food_grocery_", "suffix": ".png"}}], "chains": [{"id": "2fc927c0-9c63-0132-6632-3c15c2dde6c8", "name": "Tesco"}], "distance": 856, "geocodes": {"main": {"latitude": 51.526361, "longitude": -0.099426}, "roof": {"latitude": 51.526361, "longitude": -0.099426}}, "link": "/v3/places/564c49b738fae2c0d73ff781", "location": {"address": "100 Central St", "country": "GB", "cross_street": "", "formatted_address": "100 Central St", "postcode": ""}, "name": "Tesco Express", "related_places": {}, "timezone": "Europe/London"}, {"fsq_id": "537bc0ac498e79a3c4cccb36", "categories": [{"id": 17069, "name": "Grocery Store / Supermarket", "icon": {"prefix": "https://ss3.4sqi.net/img/categories_v2/shops/food_grocery_", "suffix": ".png"}}], "chains": [{"id": "2fc927c0-9c63-0132-6632-3c15c2dde6c8", "name": "Tesco"}], "distance": 886, "geocodes": {"main": {"latitude": 51.523946, "longitude": -0.102544}, "roof": {"latitude": 51.523946, "longitude": -0.102544}}, "link": "/v3/places/537bc0ac498e79a3c4cccb36", "location": {"address": "170-176 St. John St", "admin_region": "England", "country": "GB", "cross_street": "", "formatted_address": "170-176 St. John St, London, Greater London, EC1V 4LS", "locality": "London", "neighborhood": ["The City"], "post_town": "London", "postcode": "EC1V 4LS", "region": "Greater London"}, "name": "Tesco Express", "related_places": {}, "timezone": "Europe/London"}, {"fsq_id": "537bc0ac498e79a3c4ccd061", "categories": [{"id": 17069, "name": "Grocery Store / Supermarket", "icon": {"prefix": "https://ss3.4sqi.net/img/categories_v2/shops/food_grocery_", "suffix": ".png"}}], "chains": [{"id": "2fc927c0-9c63-0132-6632-3c15c2dde6c8", "name": "Tesco"}], "distance": 1003, "geocodes": {"main": {"latitude": 51.541598, "longitude": -0.102059}, "roof": {"latitude": 51.541598, "longitude": -0.102059}}, "link": "/v3/places/537bc0ac498e79a3c4ccd061", "location": {"address": "25-29 Islington Green", "admin_region": "England", "country": "GB", "cross_street": "", "formatted_address": "25-29 Islington Green, London, Greater London, N1 8DU", "locality": "London", "post_town": "London", "postcode": "N1 8DU", "region": "Greater London"}, "name": "Tesco Express", "related_places": {}, "timezone": "Europe/London"}, {"fsq_id": "4b720048f964a52061692de3", "categories": [{"id": 17069, "name": "Grocery Store / Supermarket", "icon": {"prefix": "https://ss3.4sqi.net/img/categories_v2/shops/food_grocery_", "suffix": ".png"}}], "chains": [{"id": "2fc927c0-9c63-0132-6632-3c15c2dde6c8", "name": "Tesco"}], "distance": 2169, "geocodes": {"main": {"latitude": 51.511005, "longitude": -0.1193}, "roof": {"latitude": 51.511005, "longitude": -0.1193}}, "link": "/v3/places/4b720048f964a52061692de3", "location": {"address": "125 The Strand", "admin_region": "England", "country": "GB", "cross_street": "", "formatted_address": "125 The Strand, London, Greater London, WC2R 0AP", "locality": "London", "neighborhood": ["Strand"], "post_town": "London", "postcode": "WC2R 0AP", "region": "Greater London"}, "name": "Tesco Express", "related_places": {}, "timezone": "Europe/London"}, {"fsq_id": "5384d1e7498e2acde3a1a62d", "categories": [{"id": 17069, "name": "Grocery Store / Supermarket", "icon": {"prefix": "https://ss3.4sqi.net/img/categories_v2/shops/food_grocery_", "suffix": ".png"}}], "chains": [{"id": "2fc927c0-9c63-0132-6632-3c15c2dde6c8", "name": "Tesco"}], "distance": 872, "geocodes": {"main": {"latitude": 51.531585, "longitude": -0.121071}, "roof": {"latitude": 51.531585, "longitude": -0.121071}}, "link": "/v3/places/5384d1e7498e2acde3a1a62d", "location": {"address": "Caledonian Rd", "admin_region": "England", "country": "GB", "cross_street": "", "formatted_address": "Caledonian Rd, London, Greater London, N1 9DX", "locality": "London", "post_town": "London", "postcode": "N1 9DX", "region": "Greater London"}, "name": "Tesco Express", "related_places": {}, "timezone": "Europe/London"}, {"fsq_id": "537bc0ac498e79a3c4ccc582", "categories": [{"id": 17069, "name": "Grocery Store / Supermarket", "icon": {"prefix": "https://ss3.4sqi.net/img/categories_v2/shops/food_grocery_", "suffix": ".png"}}], "chains": [{"id": "2fc927c0-9c63-0132-6632-3c15c2dde6c8", "name": "Tesco"}], "distance": 1171, "geocodes": {"main": {"latitude": 51.523842, "longitude": -0.096562}, "roof": {"latitude": 51.523842, "longitude": -0.096562}}, "link": "/v3/places/537bc0ac498e79a3c4ccc582", "location": {"address": "20-24 Kirby St", "admin_region": "England", "country": "GB", "cross_street": "", "formatted_address": "20-24 Kirby St, London, Greater London, EC1N 8TS", "locality": "London", "post_town": "London", "postcode": "EC1N 8TS", "region": "Greater London"}, "name": "Tesco Express", "related_places": {}, "timezone": "Europe/London"}]