[{"fsq_id": "4c026b42187ec9280725b47b", "categories": [{"id": 17035, "name": "Drugstore", "icon": {"prefix": "https://ss3.4sqi.net/img/categories_v2/shops/pharmacy_", "suffix": ".png"}}], "chains": [{"id": "2fc93830-9c63-0132-6632-3c15c2dde6c8", "name": "Superdrug Stores"}], "distance": 132, "geocodes": {"main": {"latitude": 51.533454, "longitude": -0.107475}, "roof": {"latitude": 51.533454, "longitude": -0.107475}}, "link": "/v3/places/4c026b42187ec9280725b47b", "location": {"address": "54-55 Chapel Market", "admin_region": "England", "country": "GB", "cross_street": "", "formatted_address": "54-55 Chapel Market, Islington, Greater London, N1 9EW", "locality": "Islington", "neighborhood": ["Islington"], "post_town": "London", "postcode": "N1 9EW", "region": "Greater London"}, "name": "Superdrug Stores", "related_places": {}, "timezone": "Europe/London"}, {"fsq_id": "4c17c5d4838020a15530e361", "categories": [{"id": 17035, "name": "Drugstore", "icon": {"prefix": "https://ss3.4sqi.net/img/categories_v2/shops/pharmacy_", "suffix": ".png"}}], "chains": [{"id": "2fc93830-9c63-0132-6632-3c15c2dde6c8", "name": "Superdrug Stores"}], "distance": 1554, "geocodes": {"main": {"latitude": 51.524489, "longitude": -0.123647}, "roof": {"latitude": 51.524489, "longitude": -0.123647}}, "link": "/v3/places/4c17c5d4838020a15530e361", "location": {"address": "Brunswick Centre", "address_extended": "Unit 33-35", "admin_region": "England", "country": "GB", "cross_street": "", "formatted_address": "Brunswick Centre, Bloomsbury, Greater London, WC1N 1AF", "locality": "Bloomsbury", "neighborhood": ["Holborn"], "post_town": "London", "postcode": "WC1N 1AF", "region": "Greater London"}, "name": "Superdrug Stores", "related_places": {"parent": {"fsq_id": "4ae89dbaf964a520e3b021e3", "name": "The Brunswick"}}, "timezone": "Europe/London"}, {"fsq_id": "4b3ca03df964a520b08525e3", "categories": [{"id": 17035, "name": "Drugstore", "icon": {"prefix": "https://ss3.4sqi.net/img/categories_v2/shops/pharmacy_", "suffix": ".png"}}], "chains": [{"id": "2fc93830-9c63-0132-6632-3c15c2dde6c8", "name": "Superdrug Stores"}], "distance": 2413, "geocodes": {"main": {"latitude": 51.519099, "longitude": -0.132603}, "roof": {"latitude": 51.519099, "longitude": -0.132603}}, "link": "/v3/places/4b3ca03df964a520b08525e3", "location": {"address": "227-229 Tottenham Ct Rd", "admin_region": "England", "country": "GB", "cross_street": "", "formatted_address": "227-229 Tottenham Ct Rd, London, Greater London, W1T 7QE", "locality": "London", "neighborhood": ["West Central"], "post_town": "London", "postcode": "W1T 7QE", "region": "Greater London"}, "name": "Superdrug Stores", "related_places": {}, "timezone": "Europe/London"}, {"fsq_id": "4c73d2fa0e23b1f7e85521dc", "categories": [{"id": 17035, "name": "Drugstore", "icon": {"prefix": "https://ss3.4sqi.net/img/categories_v2/shops/pharmacy_", "suffix": ".png"}}], "chains": [{"id": "2fc93830-9c63-0132-6632-3c15c2dde6c8", "name": "Superdrug Stores"}], "distance": 2736, "geocodes": {"main": {"latitude": 51.547291, "longitude": -0.074493}, "roof": {"latitude": 51.547291, "longitude": -0.074493}}, "link": "/v3/places/4c73d2fa0e23b1f7e85521dc", "location": {"address": "Kingsland Shopping Centre", "address_extended": "Unit 10/11", "admin_region": "England", "country": "GB", "cross_street": "", "formatted_address": "Kingsland Shopping Centre, Dalston, Greater London, E8 2LX", "locality": "Dalston", "post_town": "London", "postcode": "E8 2LX", "region": "Greater London"}, "name": "Superdrug Stores", "related_places": {"parent": {"fsq_id": "4b744bdcf964a52057d32de3", "name": "Kingsland Shopping Centre"}}, "timezone": "Europe/London"}, {"fsq_id": "5dc41e96d44b0c00081b1f5f", "categories": [{"id": 17035, "name": "Drugstore", "icon": {"prefix": "https://ss3.4sqi.net/img/categories_v2/shops/pharmacy_", "suffix": ".png"}}], "chains": [{"id": "2fc93830-9c63-0132-6632-3c15c2dde6c8", "name": "Superdrug Stores"}], "distance": 2829, "geocodes": {"main": {"latitude": 51.507282, "longitude": -0.10618}, "roof": {"latitude": 51.507282, "longitude": -0.10618}}, "link": "/v3/places/5dc41e96d44b0c00081b1f5f", "location": {"address": "22 Stamford St", "address_extended": "Unit 10A", "admin_region": "England", "country": "GB", "cross_street": "", "formatted_address": "22 Stamford St, South Bank, Greater London, SE1 9NY", "locality": "South Bank", "post_town": "London", "postcode": "SE1 9NY", "region": "Greater London"}, "name": "Superdrug Stores", "related_places": {}, "timezone": "Europe/London"}, {"fsq_id": "57d95140498e841b8f41b8a2", "categories": [{"id": 17035, "name": "Drugstore", "icon": {"prefix": "https://ss3.4sqi.net/img/categories_v2/shops/pharmacy_", "suffix": ".png"}}], "chains": [{"id": "2fc93830-9c63-0132-6632-3c15c2dde6c8", "name": "Superdrug Stores"}], "distance": 3181, "geocodes": {"main": {"latitude": 51.516858, "longitude": -0.068395}, "roof": {"latitude": 51.516858, "longitude": -0.068395}}, "link": "/v3/places/57d95140498e841b8f41b8a2", "location": {"address": "75 Whitechapel Rd", "address_extended": "Unit 3", "admin_region": "England", "country": "GB", "cross_street": "", "formatted_address": "75 Whitechapel Rd, Whitechapel, Greater London, E1 1DU", "locality": "Whitechapel", "post_town": "London", "postcode": "E1 1DU", "region": "Greater London"}, "name": "Superdrug Stores", "related_places": {}, "timezone": "Europe/London"}, {"fsq_id": "4cc12e14e310224b9b9c2e6f", "categories": [{"id": 17035, "name": "Drugstore", "icon": {"prefix": "https://ss3.4sqi.net/img/categories_v2/shops/pharmacy_", "suffix": ".png"}}], "chains": [{"id": "2fc93830-9c63-0132-6632-3c15c2dde6c8", "name": "Superdrug Stores"}], "distance": 2456, "geocodes": {"main": {"latitude": 51.514559, "longitude": -0.085545}, "roof": {"latitude": 51.514559, "longitude": -0.085545}}, "link": "/v3/places/4cc12e14e310224b9b9c2e6f", "location": {"address": "3-4 Old Broad St", "address_extended": "Unit 2", "admin_region": "England", "country": "GB", "cross_street": "Lion Plaza", "formatted_address": "3-4 Old Broad St (Lion Plaza), London, Greater London, EC2N 1DW", "locality": "London", "neighborhood": ["Liverpool Street"], "post_town": "London", "postcode": "EC2N 1DW", "region": "Greater London"}, "name": "Superdrug Stores", "related_places": {}, "timezone": "Europe/London"}, {"fsq_id": "4bc9817d937ca593fbeaa592", "categories": [{"id": 17035, "name": "Drugstore", "icon": {"prefix": "https://ss3.4sqi.net/img/categories_v2/shops/pharmacy_", "suffix": ".png"}}], "chains": [{"id": "2fc93830-9c63-0132-6632-3c15c2dde6c8", "name": "Superdrug Stores"}], "distance": 2963, "geocodes": {"main": {"latitude": 51.558229, "longitude": -0.119059}, "roof": {"latitude": 51.558229, "longitude": -0.119059}}, "link": "/v3/places/4bc9817d937ca593fbeaa592", "location": {"address": "5-7 Seven Sisters Rd", "admin_region": "England", "country": "GB", "cross_street": "", "formatted_address": "5-7 Seven Sisters Rd, Holloway, Greater London, N7 6AJ", "locality": "Holloway", "neighborhood": ["Holloway"], "post_town": "London", "postcode": "N7 6AJ", "region": "Greater London"}, "name": "Superdrug Stores", "related_places": {}, "timezone": "Europe/London"}, {"fsq_id": "50479153e4b09309f737dd67", "categories": [{"id": 17035, "name": "Drugstore", "icon": {"prefix": "https://ss3.4sqi.net/img/categories_v2/shops/pharmacy_", "suffix": ".png"}}], "chains": [{"id": "2fc93830-9c63-0132-6632-3c15c2dde6c8", "name": "Superdrug Stores"}], "distance": 3644, "geocodes": {"main": {"latitude": 51.514043, "longitude": -0.149506}, "roof": {"latitude": 51.514043, "longitude": -0.149506}}, "link": "/v3/places/50479153e4b09309f737dd67", "location": {"address": "West One Shopping Centre", "address_extended": "Units C9", "admin_region": "England", "country": "GB", "cross_street": "381 Oxford St", "formatted_address": "West One Shopping Centre (381 Oxford St), London, Greater London, W1C 2JS", "locality": "London", "neighborhood": ["West Central"], "post_town": "London", "postcode": "W1C 2JS", "region": "Greater London"}, "name": "Superdrug Stores", "related_places": {"parent": {"fsq_id": "4b53252ef964a5203c9027e3", "name": "West One Shopping Centre"}}, "timezone": "Europe/London"}, {"fsq_id": "4cde9790f8cdb1f771ff8b12", "categories": [{"id": 17035, "name": "Drugstore", "icon": {"prefix": "https://ss3.4sqi.net/img/categories_v2/shops/pharmacy_", "suffix": ".png"}}], "chains": [{"id": "2fc93830-9c63-0132-6632-3c15c2dde6c8", "name": "Superdrug Stores"}], "distance": 4912, "geocodes": {"main": {"latitude": 51.576299, "longitude": -0.097508}, "roof": {"latitude": 51.576299, "longitude": -0.097508}}, "link": "/v3/places/4cde9790f8cdb1f771ff8b12", "location": {"address": "The Arena Shopping Park", "address_extended": "Unit 5a", "admin_region": "England", "country": "GB", "cross_street": "Williamson Rd", "formatted_address": "The Arena Shopping Park (Williamson Rd), Harringay, Greater London, N4 1ED", "locality": "Harringay", "neighborhood": ["Finsbury Park"], "post_town": "London", "postcode": "N4 1ED", "region": "Greater London"}, "name": "Superdrug Stores", "related_places": {}, "timezone": "Europe/London"}]